City,Latitude,Longitude,Temperature,Pressure,Humidity,id
Aigues Mortes,43.5661521,4.19154,8.31975,1009.9,58.925,102716851.0
Nimes,43.8374249,4.3600687,7.0095,1009.9,60.725,102307633.0
Saintes Maries de la mer,43.4515922,4.4277202,8.5565,1009.6,62.65,102529062.0
Uzes,44.0121279,4.4196718,5.9525,1010.075,66.025,106427400.0
Paris,48.8534951,2.3483915,4.371499999999999,1017.65,67.425,114827617.0
